{"type": "FeatureCollection", "features": [
{"type": "Feature", "geometry": {"type": "Point", "coordinates": [117.141, 36.656]}, "properties": {"_id": "http://news.e23.cn/shandong/2023-09-04/2023090400108.html", "title": "\u5c71\u4e1c\u4f01\u4e1a\u4e3b\u5bfc\u627f\u5efa\uff0c\u5b5f\u52a0\u62c9\u56fd\u9996\u6761\u9ad8\u67b6\u5feb\u901f\u8def\u901a\u8f66", "location_name": "\u4e2d\u56fd\u7535\u5efa\u96c6\u56e2", "sentiment_score": 0.863, "topic_index": 3}}
,{"type": "Feature", "geometry": {"type": "Point", "coordinates": [117.022, 36.667]}, "properties": {"_id": "http://news.e23.cn/shandong/2023-09-04/2023090400084.html", "title": "\u53d1\u8f66\uff01\u201c\u9f50\u9c81\u53f7\u201d\u4e2d\u6b27\u73ed\u5217\u8dd1\u51fa\u201c\u9ec4\u91d1\u4e1d\u8def\u201d\uff0c\u4ece\u9996\u4e2a\u6d77\u5916\u96c6\u7ed3\u4e2d\u5fc3\u9a76\u56de", "location_name": "\u9f50\u9c81", "sentiment_score": 0.9562, "topic_index": 2}}
,{"type": "Feature", "geometry": {"type": "Point", "coordinates": [116.933, 36.658]}, "properties": {"_id": "http://news.e23.cn/shandong/2023-09-04/2023090400053.html", "title": "\u5f00\u6d77\u5c1d\u9c9c\uff01\u73b0\u6355\u68ad\u5b50\u87f9\u3001\u9c9c\u867e\u9500\u552e\u706b\u7206 \u4ef7\u683c\u8f83\u5f80\u5e74\u53d8\u5316\u4e0d\u5927", "location_name": "\u5f00\u6d77", "sentiment_score": 0.9756, "topic_index": 1}}
,{"type": "Feature", "geometry": {"type": "Point", "coordinates": [119.156, 36.706]}, "properties": {"_id": "http://news.e23.cn/shandong/2023-09-04/2023090400053.html", "title": "\u5f00\u6d77\u5c1d\u9c9c\uff01\u73b0\u6355\u68ad\u5b50\u87f9\u3001\u9c9c\u867e\u9500\u552e\u706b\u7206 \u4ef7\u683c\u8f83\u5f80\u5e74\u53d8\u5316\u4e0d\u5927", "location_name": "\u6f4d\u574a\u5e02", "sentiment_score": 0.9756, "topic_index": 1}}
,{"type": "Feature", "geometry": {"type": "Point", "coordinates": [119.15, 37.032]}, "properties": {"_id": "http://news.e23.cn/shandong/2023-09-04/2023090400053.html", "title": "\u5f00\u6d77\u5c1d\u9c9c\uff01\u73b0\u6355\u68ad\u5b50\u87f9\u3001\u9c9c\u867e\u9500\u552e\u706b\u7206 \u4ef7\u683c\u8f83\u5f80\u5e74\u53d8\u5316\u4e0d\u5927", "location_name": "\u6f4d\u574a\u6e24\u6d77\u56fd\u9645\u6d77\u9c9c\u8d85\u5e02", "sentiment_score": 0.9756, "topic_index": 1}}
,{"type": "Feature", "geometry": {"type": "Point", "coordinates": [117.022, 36.667]}, "properties": {"_id": "http://news.e23.cn/shandong/2023-09-04/2023090400048.html", "title": "\u201c\u9f50\u9c81\u53f7\u201d\u4e2d\u6b27\u73ed\u5217\u8dd1\u51fa\u201c\u9ec4\u91d1\u4e1d\u8def\u201d\uff0c\u9996\u4e2a\u6d77\u5916\u96c6\u7ed3\u4e2d\u5fc3\u843d\u5b50\u963f\u62c9\u6728\u56fe", "location_name": "\u9f50\u9c81", "sentiment_score": 0.9732, "topic_index": 2}}
,{"type": "Feature", "geometry": {"type": "Point", "coordinates": [117.113, 36.661]}, "properties": {"_id": "http://news.e23.cn/shandong/2023-09-04/2023090400047.html", "title": "\u7409\u7483\u975e\u9057\u6280\u827a\u3001\u5b9e\u666f\u98de\u8f66\u7cfb\u7edf\u3001\u88f8\u773c3D\u6280\u672f\u2026\u2026\u65b0\u6f6e\u670d\u52a1\u6298\u5c04\u5c71\u4e1c\u670d\u8d38\u4e4b\u53d8", "location_name": "\u4e1c\u963f\u963f\u80f6\u80a1\u4efd\u6709\u9650\u516c\u53f8", "sentiment_score": 0.9944, "topic_index": 3}}
,{"type": "Feature", "geometry": {"type": "Point", "coordinates": [117.021, 36.66]}, "properties": {"_id": "http://news.e23.cn/shandong/2023-09-04/2023090400047.html", "title": "\u7409\u7483\u975e\u9057\u6280\u827a\u3001\u5b9e\u666f\u98de\u8f66\u7cfb\u7edf\u3001\u88f8\u773c3D\u6280\u672f\u2026\u2026\u65b0\u6f6e\u670d\u52a1\u6298\u5c04\u5c71\u4e1c\u670d\u8d38\u4e4b\u53d8", "location_name": "\u97e9\u56fd", "sentiment_score": 0.9944, "topic_index": 3}}
,{"type": "Feature", "geometry": {"type": "Point", "coordinates": [117.014, 36.619]}, "properties": {"_id": "http://news.e23.cn/shandong/2023-09-04/2023090400047.html", "title": "\u7409\u7483\u975e\u9057\u6280\u827a\u3001\u5b9e\u666f\u98de\u8f66\u7cfb\u7edf\u3001\u88f8\u773c3D\u6280\u672f\u2026\u2026\u65b0\u6f6e\u670d\u52a1\u6298\u5c04\u5c71\u4e1c\u670d\u8d38\u4e4b\u53d8", "location_name": "\u7701\u5546\u52a1\u5385", "sentiment_score": 0.9944, "topic_index": 3}}
,{"type": "Feature", "geometry": {"type": "Point", "coordinates": [117.027, 36.67]}, "properties": {"_id": "http://news.e23.cn/shandong/2023-09-04/2023090400047.html", "title": "\u7409\u7483\u975e\u9057\u6280\u827a\u3001\u5b9e\u666f\u98de\u8f66\u7cfb\u7edf\u3001\u88f8\u773c3D\u6280\u672f\u2026\u2026\u65b0\u6f6e\u670d\u52a1\u6298\u5c04\u5c71\u4e1c\u670d\u8d38\u4e4b\u53d8", "location_name": "\u5927\u660e\u6e56", "sentiment_score": 0.9944, "topic_index": 3}}
,{"type": "Feature", "geometry": {"type": "Point", "coordinates": [117.68, 36.23]}, "properties": {"_id": "http://news.e23.cn/shandong/2023-09-04/2023090400047.html", "title": "\u7409\u7483\u975e\u9057\u6280\u827a\u3001\u5b9e\u666f\u98de\u8f66\u7cfb\u7edf\u3001\u88f8\u773c3D\u6280\u672f\u2026\u2026\u65b0\u6f6e\u670d\u52a1\u6298\u5c04\u5c71\u4e1c\u670d\u8d38\u4e4b\u53d8", "location_name": "\u5c71\u4e1c\u5b9e\u666f\u4e92\u52a8\u7f51\u7edc\u79d1\u6280\u6709\u9650\u516c\u53f8", "sentiment_score": 0.9944, "topic_index": 3}}
,{"type": "Feature", "geometry": {"type": "Point", "coordinates": [117.005, 36.597]}, "properties": {"_id": "http://news.e23.cn/shandong/2023-09-04/2023090400047.html", "title": "\u7409\u7483\u975e\u9057\u6280\u827a\u3001\u5b9e\u666f\u98de\u8f66\u7cfb\u7edf\u3001\u88f8\u773c3D\u6280\u672f\u2026\u2026\u65b0\u6f6e\u670d\u52a1\u6298\u5c04\u5c71\u4e1c\u670d\u8d38\u4e4b\u53d8", "location_name": "\u9752\u5c9b\u51fa\u7248\u96c6\u56e2", "sentiment_score": 0.9944, "topic_index": 3}}
,{"type": "Feature", "geometry": {"type": "Point", "coordinates": [120.378, 36.066]}, "properties": {"_id": "http://news.e23.cn/shandong/2023-09-04/2023090400047.html", "title": "\u7409\u7483\u975e\u9057\u6280\u827a\u3001\u5b9e\u666f\u98de\u8f66\u7cfb\u7edf\u3001\u88f8\u773c3D\u6280\u672f\u2026\u2026\u65b0\u6f6e\u670d\u52a1\u6298\u5c04\u5c71\u4e1c\u670d\u8d38\u4e4b\u53d8", "location_name": "\u9752\u5c9b\u5e02", "sentiment_score": 0.9944, "topic_index": 3}}
,{"type": "Feature", "geometry": {"type": "Point", "coordinates": [119.688, 29.102]}, "properties": {"_id": "http://news.e23.cn/shandong/2023-09-04/2023090400047.html", "title": "\u7409\u7483\u975e\u9057\u6280\u827a\u3001\u5b9e\u666f\u98de\u8f66\u7cfb\u7edf\u3001\u88f8\u773c3D\u6280\u672f\u2026\u2026\u65b0\u6f6e\u670d\u52a1\u6298\u5c04\u5c71\u4e1c\u670d\u8d38\u4e4b\u53d8", "location_name": "\u91d1\u4e1c\u6570\u5b57\u521b\u610f\u80a1\u4efd", "sentiment_score": 0.9944, "topic_index": 3}}
,{"type": "Feature", "geometry": {"type": "Point", "coordinates": [117.51, 36.623]}, "properties": {"_id": "http://news.e23.cn/shandong/2023-09-04/2023090400046.html", "title": "\u5168\u56fd\u9996\u6761\u96f6\u78b3\u9ad8\u901f\u6d4e\u6f4d\u9ad8\u901f\u5177\u5907\u901a\u8f66\u6761\u4ef6", "location_name": "\u6d4e\u6f4d\u9ad8\u901f", "sentiment_score": 0.9916, "topic_index": 3}}
,{"type": "Feature", "geometry": {"type": "Point", "coordinates": [117.153, 37.298]}, "properties": {"_id": "http://news.e23.cn/shandong/2023-09-04/2023090400046.html", "title": "\u5168\u56fd\u9996\u6761\u96f6\u78b3\u9ad8\u901f\u6d4e\u6f4d\u9ad8\u901f\u5177\u5907\u901a\u8f66\u6761\u4ef6", "location_name": "\u4ea4\u901a\u8fd0\u8f93\u90e8", "sentiment_score": 0.9916, "topic_index": 3}}
,{"type": "Feature", "geometry": {"type": "Point", "coordinates": [116.774, 36.56]}, "properties": {"_id": "http://news.e23.cn/shandong/2023-09-04/2023090400046.html", "title": "\u5168\u56fd\u9996\u6761\u96f6\u78b3\u9ad8\u901f\u6d4e\u6f4d\u9ad8\u901f\u5177\u5907\u901a\u8f66\u6761\u4ef6", "location_name": "\u660e\u6d1e", "sentiment_score": 0.9916, "topic_index": 3}}
,{"type": "Feature", "geometry": {"type": "Point", "coordinates": [120.378, 36.066]}, "properties": {"_id": "http://news.e23.cn/shandong/2023-09-04/2023090400018.html", "title": "\u5c71\u4e1c\u4e3e\u529e\u4e3b\u5bbe\u7701\u4e3b\u9898\u65e5\u63a8\u4ecb\u6d3b\u52a8 6\u4e2a\u9879\u76ee\u73b0\u573a\u7b7e\u7ea6\u8fd17000\u4e07\u7f8e\u5143", "location_name": "\u9752\u5c9b\u5e02", "sentiment_score": 0.9886, "topic_index": 3}}
,{"type": "Feature", "geometry": {"type": "Point", "coordinates": [122.167, 37.42]}, "properties": {"_id": "http://news.e23.cn/shandong/2023-09-04/2023090400018.html", "title": "\u5c71\u4e1c\u4e3e\u529e\u4e3b\u5bbe\u7701\u4e3b\u9898\u65e5\u63a8\u4ecb\u6d3b\u52a8 6\u4e2a\u9879\u76ee\u73b0\u573a\u7b7e\u7ea6\u8fd17000\u4e07\u7f8e\u5143", "location_name": "\u5a01\u6d77\u5e02\u670d\u52a1\u8d38\u6613\u4ea7\u4e1a\u56ed", "sentiment_score": 0.9886, "topic_index": 3}}
,{"type": "Feature", "geometry": {"type": "Point", "coordinates": [116.985, 36.661]}, "properties": {"_id": "http://news.e23.cn/shandong/2023-09-04/2023090400018.html", "title": "\u5c71\u4e1c\u4e3e\u529e\u4e3b\u5bbe\u7701\u4e3b\u9898\u65e5\u63a8\u4ecb\u6d3b\u52a8 6\u4e2a\u9879\u76ee\u73b0\u573a\u7b7e\u7ea6\u8fd17000\u4e07\u7f8e\u5143", "location_name": "\u5c71\u4e1c\u6377\u745e\u6570\u5b57\u79d1\u6280\u80a1\u4efd\u6709\u9650\u516c\u53f8", "sentiment_score": 0.9886, "topic_index": 3}}
,{"type": "Feature", "geometry": {"type": "Point", "coordinates": [117.113, 36.661]}, "properties": {"_id": "http://news.e23.cn/shandong/2023-09-04/2023090400018.html", "title": "\u5c71\u4e1c\u4e3e\u529e\u4e3b\u5bbe\u7701\u4e3b\u9898\u65e5\u63a8\u4ecb\u6d3b\u52a8 6\u4e2a\u9879\u76ee\u73b0\u573a\u7b7e\u7ea6\u8fd17000\u4e07\u7f8e\u5143", "location_name": "\u4e1c\u963f\u963f\u80f6\u80a1\u4efd\u6709\u9650\u516c\u53f8", "sentiment_score": 0.9886, "topic_index": 3}}
,{"type": "Feature", "geometry": {"type": "Point", "coordinates": [117.138, 36.66]}, "properties": {"_id": "http://news.e23.cn/shandong/2023-09-04/2023090400018.html", "title": "\u5c71\u4e1c\u4e3e\u529e\u4e3b\u5bbe\u7701\u4e3b\u9898\u65e5\u63a8\u4ecb\u6d3b\u52a8 6\u4e2a\u9879\u76ee\u73b0\u573a\u7b7e\u7ea6\u8fd17000\u4e07\u7f8e\u5143", "location_name": "\u6781\u9650\u4eba\u5de5\u667a\u80fd\u6709\u9650\u516c\u53f8", "sentiment_score": 0.9886, "topic_index": 3}}
,{"type": "Feature", "geometry": {"type": "Point", "coordinates": [117.68, 36.23]}, "properties": {"_id": "http://news.e23.cn/shandong/2023-09-04/2023090400018.html", "title": "\u5c71\u4e1c\u4e3e\u529e\u4e3b\u5bbe\u7701\u4e3b\u9898\u65e5\u63a8\u4ecb\u6d3b\u52a8 6\u4e2a\u9879\u76ee\u73b0\u573a\u7b7e\u7ea6\u8fd17000\u4e07\u7f8e\u5143", "location_name": "\u4ee5\u8272\u5217\u50b2\u6e43\u5916\u79d1\u533b\u7597\u79d1\u6280\u6709\u9650\u516c\u53f8", "sentiment_score": 0.9886, "topic_index": 3}}
,{"type": "Feature", "geometry": {"type": "Point", "coordinates": [117.186, 36.796]}, "properties": {"_id": "http://news.e23.cn/shandong/2023-09-04/2023090400018.html", "title": "\u5c71\u4e1c\u4e3e\u529e\u4e3b\u5bbe\u7701\u4e3b\u9898\u65e5\u63a8\u4ecb\u6d3b\u52a8 6\u4e2a\u9879\u76ee\u73b0\u573a\u7b7e\u7ea6\u8fd17000\u4e07\u7f8e\u5143", "location_name": "\u6d4e\u5357\u68ee\u5cf0\u6fc0\u5149\u79d1\u6280\u80a1\u4efd\u6709\u9650\u516c\u53f8", "sentiment_score": 0.9886, "topic_index": 3}}
,{"type": "Feature", "geometry": {"type": "Point", "coordinates": [117.027, 36.67]}, "properties": {"_id": "http://news.e23.cn/shandong/2023-09-04/2023090400017.html", "title": "\u5728\u5317\u4eac\uff0c\u8fdc\u7a0b\u9a7e\u9a76\u4e00\u53f0\u5927\u660e\u6e56\u7554\u7684\u9065\u63a7\u8f66", "location_name": "\u5927\u660e\u6e56", "sentiment_score": 0.9828, "topic_index": 3}}
,{"type": "Feature", "geometry": {"type": "Point", "coordinates": [117.68, 36.23]}, "properties": {"_id": "http://news.e23.cn/shandong/2023-09-04/2023090400017.html", "title": "\u5728\u5317\u4eac\uff0c\u8fdc\u7a0b\u9a7e\u9a76\u4e00\u53f0\u5927\u660e\u6e56\u7554\u7684\u9065\u63a7\u8f66", "location_name": "\u5c71\u4e1c\u5b9e\u666f\u4e92\u52a8\u7f51\u7edc\u79d1\u6280\u6709\u9650\u516c\u53f8", "sentiment_score": 0.9828, "topic_index": 3}}
,{"type": "Feature", "geometry": {"type": "Point", "coordinates": [116.898, 36.666]}, "properties": {"_id": "http://news.e23.cn/shandong/2023-09-04/2023090400015.html", "title": "\u7ad9\u4e0a\u201cC\u4f4d\u201d\uff0c\u5c71\u4e1c\u518d\u6269\u8d38\u6613\u201c\u670b\u53cb\u5708\u201d\uff01\u5c71\u4e1c\u4f5c\u4e3a\u4e3b\u5bbe\u7701\u4eae\u76f82023\u5e74\u4e2d\u56fd\u56fd\u9645\u670d\u52a1\u8d38\u6613\u4ea4\u6613\u4f1a", "location_name": "\u6d4e\u5357\u65f6\u62a5", "sentiment_score": 0.251, "topic_index": 3}}
,{"type": "Feature", "geometry": {"type": "Point", "coordinates": [117.023, 36.664]}, "properties": {"_id": "http://news.e23.cn/shandong/2023-09-04/2023090400015.html", "title": "\u7ad9\u4e0a\u201cC\u4f4d\u201d\uff0c\u5c71\u4e1c\u518d\u6269\u8d38\u6613\u201c\u670b\u53cb\u5708\u201d\uff01\u5c71\u4e1c\u4f5c\u4e3a\u4e3b\u5bbe\u7701\u4eae\u76f82023\u5e74\u4e2d\u56fd\u56fd\u9645\u670d\u52a1\u8d38\u6613\u4ea4\u6613\u4f1a", "location_name": "\u4e2d\u96c6\u6765\u798f\u58eb", "sentiment_score": 0.251, "topic_index": 3}}
,{"type": "Feature", "geometry": {"type": "Point", "coordinates": [116.945, 36.714]}, "properties": {"_id": "http://news.e23.cn/shandong/2023-09-04/2023090400015.html", "title": "\u7ad9\u4e0a\u201cC\u4f4d\u201d\uff0c\u5c71\u4e1c\u518d\u6269\u8d38\u6613\u201c\u670b\u53cb\u5708\u201d\uff01\u5c71\u4e1c\u4f5c\u4e3a\u4e3b\u5bbe\u7701\u4eae\u76f82023\u5e74\u4e2d\u56fd\u56fd\u9645\u670d\u52a1\u8d38\u6613\u4ea4\u6613\u4f1a", "location_name": "\u6f4d\u67f4\u52a8\u529b", "sentiment_score": 0.251, "topic_index": 3}}
,{"type": "Feature", "geometry": {"type": "Point", "coordinates": [117.223, 36.722]}, "properties": {"_id": "http://news.e23.cn/shandong/2023-09-04/2023090400015.html", "title": "\u7ad9\u4e0a\u201cC\u4f4d\u201d\uff0c\u5c71\u4e1c\u518d\u6269\u8d38\u6613\u201c\u670b\u53cb\u5708\u201d\uff01\u5c71\u4e1c\u4f5c\u4e3a\u4e3b\u5bbe\u7701\u4eae\u76f82023\u5e74\u4e2d\u56fd\u56fd\u9645\u670d\u52a1\u8d38\u6613\u4ea4\u6613\u4f1a", "location_name": "\u6d77\u4fe1", "sentiment_score": 0.251, "topic_index": 3}}
,{"type": "Feature", "geometry": {"type": "Point", "coordinates": [117.014, 36.619]}, "properties": {"_id": "http://news.e23.cn/shandong/2023-09-04/2023090400015.html", "title": "\u7ad9\u4e0a\u201cC\u4f4d\u201d\uff0c\u5c71\u4e1c\u518d\u6269\u8d38\u6613\u201c\u670b\u53cb\u5708\u201d\uff01\u5c71\u4e1c\u4f5c\u4e3a\u4e3b\u5bbe\u7701\u4eae\u76f82023\u5e74\u4e2d\u56fd\u56fd\u9645\u670d\u52a1\u8d38\u6613\u4ea4\u6613\u4f1a", "location_name": "\u5c71\u4e1c\u7701\u5546\u52a1\u5385", "sentiment_score": 0.251, "topic_index": 3}}
,{"type": "Feature", "geometry": {"type": "Point", "coordinates": [117.831, 36.067]}, "properties": {"_id": "http://news.e23.cn/shandong/2023-09-04/2023090400015.html", "title": "\u7ad9\u4e0a\u201cC\u4f4d\u201d\uff0c\u5c71\u4e1c\u518d\u6269\u8d38\u6613\u201c\u670b\u53cb\u5708\u201d\uff01\u5c71\u4e1c\u4f5c\u4e3a\u4e3b\u5bbe\u7701\u4eae\u76f82023\u5e74\u4e2d\u56fd\u56fd\u9645\u670d\u52a1\u8d38\u6613\u4ea4\u6613\u4f1a", "location_name": "\u4e1c\u963f\u963f\u80f6", "sentiment_score": 0.251, "topic_index": 3}}
,{"type": "Feature", "geometry": {"type": "Point", "coordinates": [117.68, 36.23]}, "properties": {"_id": "http://news.e23.cn/shandong/2023-09-04/2023090400015.html", "title": "\u7ad9\u4e0a\u201cC\u4f4d\u201d\uff0c\u5c71\u4e1c\u518d\u6269\u8d38\u6613\u201c\u670b\u53cb\u5708\u201d\uff01\u5c71\u4e1c\u4f5c\u4e3a\u4e3b\u5bbe\u7701\u4eae\u76f82023\u5e74\u4e2d\u56fd\u56fd\u9645\u670d\u52a1\u8d38\u6613\u4ea4\u6613\u4f1a", "location_name": "\u5c71\u4e1c\u5b9e\u666f\u4e92\u52a8\u7f51\u7edc\u79d1\u6280\u6709\u9650\u516c\u53f8", "sentiment_score": 0.251, "topic_index": 3}}
,{"type": "Feature", "geometry": {"type": "Point", "coordinates": [117.04, 36.65]}, "properties": {"_id": "http://news.e23.cn/shandong/2023-09-03/2023090300113.html", "title": "\u5c71\u4e1c\u7537\u751f\u9a91\u884c\u897f\u85cf\u9014\u7ecf58\u4e2a\u57ce\u5e02\uff0c\u6cbf\u9014\u5ba3\u4f20\u5bb6\u4e61", "location_name": "\u5c71\u4e1c\u4e2d\u533b\u836f\u5927\u5b66", "sentiment_score": 0.9872, "topic_index": 3}}
,{"type": "Feature", "geometry": {"type": "Point", "coordinates": [118.136, 30.275]}, "properties": {"_id": "http://news.e23.cn/shandong/2023-09-03/2023090300113.html", "title": "\u5c71\u4e1c\u7537\u751f\u9a91\u884c\u897f\u85cf\u9014\u7ecf58\u4e2a\u57ce\u5e02\uff0c\u6cbf\u9014\u5ba3\u4f20\u5bb6\u4e61", "location_name": "\u9ec4\u5c71", "sentiment_score": 0.9872, "topic_index": 3}}
,{"type": "Feature", "geometry": {"type": "Point", "coordinates": [100.268, 29.997]}, "properties": {"_id": "http://news.e23.cn/shandong/2023-09-03/2023090300113.html", "title": "\u5c71\u4e1c\u7537\u751f\u9a91\u884c\u897f\u85cf\u9014\u7ecf58\u4e2a\u57ce\u5e02\uff0c\u6cbf\u9014\u5ba3\u4f20\u5bb6\u4e61", "location_name": "\u7406\u5858", "sentiment_score": 0.9872, "topic_index": 3}}
,{"type": "Feature", "geometry": {"type": "Point", "coordinates": [104.074, 30.654]}, "properties": {"_id": "http://news.e23.cn/shandong/2023-09-03/2023090300113.html", "title": "\u5c71\u4e1c\u7537\u751f\u9a91\u884c\u897f\u85cf\u9014\u7ecf58\u4e2a\u57ce\u5e02\uff0c\u6cbf\u9014\u5ba3\u4f20\u5bb6\u4e61", "location_name": "\u56db\u5ddd", "sentiment_score": 0.9872, "topic_index": 3}}
,{"type": "Feature", "geometry": {"type": "Point", "coordinates": [101.96, 30.052]}, "properties": {"_id": "http://news.e23.cn/shandong/2023-09-03/2023090300113.html", "title": "\u5c71\u4e1c\u7537\u751f\u9a91\u884c\u897f\u85cf\u9014\u7ecf58\u4e2a\u57ce\u5e02\uff0c\u6cbf\u9014\u5ba3\u4f20\u5bb6\u4e61", "location_name": "\u7518\u5b5c\u85cf\u65cf\u81ea\u6cbb\u5dde", "sentiment_score": 0.9872, "topic_index": 3}}
,{"type": "Feature", "geometry": {"type": "Point", "coordinates": [102.709, 25.049]}, "properties": {"_id": "http://news.e23.cn/shandong/2023-09-03/2023090300113.html", "title": "\u5c71\u4e1c\u7537\u751f\u9a91\u884c\u897f\u85cf\u9014\u7ecf58\u4e2a\u57ce\u5e02\uff0c\u6cbf\u9014\u5ba3\u4f20\u5bb6\u4e61", "location_name": "\u4e91\u5357", "sentiment_score": 0.9872, "topic_index": 3}}
,{"type": "Feature", "geometry": {"type": "Point", "coordinates": [117.047, 36.686]}, "properties": {"_id": "http://news.e23.cn/shandong/2023-09-03/2023090300113.html", "title": "\u5c71\u4e1c\u7537\u751f\u9a91\u884c\u897f\u85cf\u9014\u7ecf58\u4e2a\u57ce\u5e02\uff0c\u6cbf\u9014\u5ba3\u4f20\u5bb6\u4e61", "location_name": "\u5927\u5c71\u8def", "sentiment_score": 0.9872, "topic_index": 3}}
,{"type": "Feature", "geometry": {"type": "Point", "coordinates": [116.899, 36.624]}, "properties": {"_id": "http://news.e23.cn/shandong/2023-09-03/2023090300113.html", "title": "\u5c71\u4e1c\u7537\u751f\u9a91\u884c\u897f\u85cf\u9014\u7ecf58\u4e2a\u57ce\u5e02\uff0c\u6cbf\u9014\u5ba3\u4f20\u5bb6\u4e61", "location_name": "\u7a3b\u57ce\u4e9a\u4e01", "sentiment_score": 0.9872, "topic_index": 3}}
,{"type": "Feature", "geometry": {"type": "Point", "coordinates": [116.899, 36.624]}, "properties": {"_id": "http://news.e23.cn/shandong/2023-09-03/2023090300113.html", "title": "\u5c71\u4e1c\u7537\u751f\u9a91\u884c\u897f\u85cf\u9014\u7ecf58\u4e2a\u57ce\u5e02\uff0c\u6cbf\u9014\u5ba3\u4f20\u5bb6\u4e61", "location_name": "\u7a3b\u57ce\u4e9a\u4e01\u666f\u533a", "sentiment_score": 0.9872, "topic_index": 3}}
,{"type": "Feature", "geometry": {"type": "Point", "coordinates": [100.297, 29.04]}, "properties": {"_id": "http://news.e23.cn/shandong/2023-09-03/2023090300113.html", "title": "\u5c71\u4e1c\u7537\u751f\u9a91\u884c\u897f\u85cf\u9014\u7ecf58\u4e2a\u57ce\u5e02\uff0c\u6cbf\u9014\u5ba3\u4f20\u5bb6\u4e61", "location_name": "\u7a3b\u57ce\u53bf", "sentiment_score": 0.9872, "topic_index": 3}}
,{"type": "Feature", "geometry": {"type": "Point", "coordinates": [100.268, 29.997]}, "properties": {"_id": "http://news.e23.cn/shandong/2023-09-03/2023090300113.html", "title": "\u5c71\u4e1c\u7537\u751f\u9a91\u884c\u897f\u85cf\u9014\u7ecf58\u4e2a\u57ce\u5e02\uff0c\u6cbf\u9014\u5ba3\u4f20\u5bb6\u4e61", "location_name": "\u7406\u5858\u53bf", "sentiment_score": 0.9872, "topic_index": 3}}
,{"type": "Feature", "geometry": {"type": "Point", "coordinates": [117.04, 36.65]}, "properties": {"_id": "http://news.e23.cn/shandong/2023-09-03/2023090300027.html", "title": "\u5c71\u4e1c\u7537\u751f\u9a91\u884c\u897f\u85cf\u9014\u7ecf58\u4e2a\u57ce\u5e02\uff0c\u6cbf\u9014\u4e3e\u6761\u5e45\u5ba3\u4f20\u6bcd\u6821\u548c\u5bb6\u4e61", "location_name": "\u5c71\u4e1c\u4e2d\u533b\u836f\u5927\u5b66", "sentiment_score": 0.991, "topic_index": 3}}
,{"type": "Feature", "geometry": {"type": "Point", "coordinates": [118.136, 30.275]}, "properties": {"_id": "http://news.e23.cn/shandong/2023-09-03/2023090300027.html", "title": "\u5c71\u4e1c\u7537\u751f\u9a91\u884c\u897f\u85cf\u9014\u7ecf58\u4e2a\u57ce\u5e02\uff0c\u6cbf\u9014\u4e3e\u6761\u5e45\u5ba3\u4f20\u6bcd\u6821\u548c\u5bb6\u4e61", "location_name": "\u9ec4\u5c71", "sentiment_score": 0.991, "topic_index": 3}}
,{"type": "Feature", "geometry": {"type": "Point", "coordinates": [100.268, 29.997]}, "properties": {"_id": "http://news.e23.cn/shandong/2023-09-03/2023090300027.html", "title": "\u5c71\u4e1c\u7537\u751f\u9a91\u884c\u897f\u85cf\u9014\u7ecf58\u4e2a\u57ce\u5e02\uff0c\u6cbf\u9014\u4e3e\u6761\u5e45\u5ba3\u4f20\u6bcd\u6821\u548c\u5bb6\u4e61", "location_name": "\u7406\u5858", "sentiment_score": 0.991, "topic_index": 3}}
,{"type": "Feature", "geometry": {"type": "Point", "coordinates": [104.074, 30.654]}, "properties": {"_id": "http://news.e23.cn/shandong/2023-09-03/2023090300027.html", "title": "\u5c71\u4e1c\u7537\u751f\u9a91\u884c\u897f\u85cf\u9014\u7ecf58\u4e2a\u57ce\u5e02\uff0c\u6cbf\u9014\u4e3e\u6761\u5e45\u5ba3\u4f20\u6bcd\u6821\u548c\u5bb6\u4e61", "location_name": "\u56db\u5ddd", "sentiment_score": 0.991, "topic_index": 3}}
,{"type": "Feature", "geometry": {"type": "Point", "coordinates": [101.96, 30.052]}, "properties": {"_id": "http://news.e23.cn/shandong/2023-09-03/2023090300027.html", "title": "\u5c71\u4e1c\u7537\u751f\u9a91\u884c\u897f\u85cf\u9014\u7ecf58\u4e2a\u57ce\u5e02\uff0c\u6cbf\u9014\u4e3e\u6761\u5e45\u5ba3\u4f20\u6bcd\u6821\u548c\u5bb6\u4e61", "location_name": "\u7518\u5b5c\u85cf\u65cf\u81ea\u6cbb\u5dde", "sentiment_score": 0.991, "topic_index": 3}}
,{"type": "Feature", "geometry": {"type": "Point", "coordinates": [102.709, 25.049]}, "properties": {"_id": "http://news.e23.cn/shandong/2023-09-03/2023090300027.html", "title": "\u5c71\u4e1c\u7537\u751f\u9a91\u884c\u897f\u85cf\u9014\u7ecf58\u4e2a\u57ce\u5e02\uff0c\u6cbf\u9014\u4e3e\u6761\u5e45\u5ba3\u4f20\u6bcd\u6821\u548c\u5bb6\u4e61", "location_name": "\u4e91\u5357", "sentiment_score": 0.991, "topic_index": 3}}
,{"type": "Feature", "geometry": {"type": "Point", "coordinates": [117.047, 36.686]}, "properties": {"_id": "http://news.e23.cn/shandong/2023-09-03/2023090300027.html", "title": "\u5c71\u4e1c\u7537\u751f\u9a91\u884c\u897f\u85cf\u9014\u7ecf58\u4e2a\u57ce\u5e02\uff0c\u6cbf\u9014\u4e3e\u6761\u5e45\u5ba3\u4f20\u6bcd\u6821\u548c\u5bb6\u4e61", "location_name": "\u5927\u5c71\u8def", "sentiment_score": 0.991, "topic_index": 3}}
,{"type": "Feature", "geometry": {"type": "Point", "coordinates": [116.899, 36.624]}, "properties": {"_id": "http://news.e23.cn/shandong/2023-09-03/2023090300027.html", "title": "\u5c71\u4e1c\u7537\u751f\u9a91\u884c\u897f\u85cf\u9014\u7ecf58\u4e2a\u57ce\u5e02\uff0c\u6cbf\u9014\u4e3e\u6761\u5e45\u5ba3\u4f20\u6bcd\u6821\u548c\u5bb6\u4e61", "location_name": "\u7a3b\u57ce\u4e9a\u4e01", "sentiment_score": 0.991, "topic_index": 3}}
,{"type": "Feature", "geometry": {"type": "Point", "coordinates": [116.899, 36.624]}, "properties": {"_id": "http://news.e23.cn/shandong/2023-09-03/2023090300027.html", "title": "\u5c71\u4e1c\u7537\u751f\u9a91\u884c\u897f\u85cf\u9014\u7ecf58\u4e2a\u57ce\u5e02\uff0c\u6cbf\u9014\u4e3e\u6761\u5e45\u5ba3\u4f20\u6bcd\u6821\u548c\u5bb6\u4e61", "location_name": "\u7a3b\u57ce\u4e9a\u4e01\u666f\u533a", "sentiment_score": 0.991, "topic_index": 3}}
,{"type": "Feature", "geometry": {"type": "Point", "coordinates": [100.297, 29.04]}, "properties": {"_id": "http://news.e23.cn/shandong/2023-09-03/2023090300027.html", "title": "\u5c71\u4e1c\u7537\u751f\u9a91\u884c\u897f\u85cf\u9014\u7ecf58\u4e2a\u57ce\u5e02\uff0c\u6cbf\u9014\u4e3e\u6761\u5e45\u5ba3\u4f20\u6bcd\u6821\u548c\u5bb6\u4e61", "location_name": "\u7a3b\u57ce\u53bf", "sentiment_score": 0.991, "topic_index": 3}}
,{"type": "Feature", "geometry": {"type": "Point", "coordinates": [100.268, 29.997]}, "properties": {"_id": "http://news.e23.cn/shandong/2023-09-03/2023090300027.html", "title": "\u5c71\u4e1c\u7537\u751f\u9a91\u884c\u897f\u85cf\u9014\u7ecf58\u4e2a\u57ce\u5e02\uff0c\u6cbf\u9014\u4e3e\u6761\u5e45\u5ba3\u4f20\u6bcd\u6821\u548c\u5bb6\u4e61", "location_name": "\u7406\u5858\u53bf", "sentiment_score": 0.991, "topic_index": 3}}
,{"type": "Feature", "geometry": {"type": "Point", "coordinates": [117.052, 36.661]}, "properties": {"_id": "http://news.e23.cn/shandong/2023-09-03/2023090300027.html", "title": "\u5c71\u4e1c\u7537\u751f\u9a91\u884c\u897f\u85cf\u9014\u7ecf58\u4e2a\u57ce\u5e02\uff0c\u6cbf\u9014\u4e3e\u6761\u5e45\u5ba3\u4f20\u6bcd\u6821\u548c\u5bb6\u4e61", "location_name": "\u5c71\u4e1c\u65c5\u6e38", "sentiment_score": 0.991, "topic_index": 3}}
,{"type": "Feature", "geometry": {"type": "Point", "coordinates": [116.893, 36.686]}, "properties": {"_id": "http://news.e23.cn/shandong/2023-09-03/2023090300022.html", "title": "\u5f3a\u4fe1\u5fc3 \u7a33\u7ecf\u6d4e \u4fc3\u53d1\u5c55\u4e28\u9c81\u80a1\u534a\u5e74\u62a5\u900f\u9732\u54ea\u4e9b\u4fe1\u53f7", "location_name": "\u6d77\u5c14\u667a\u5bb6", "sentiment_score": -0.0888, "topic_index": 2}}
,{"type": "Feature", "geometry": {"type": "Point", "coordinates": [117.667, 36.263]}, "properties": {"_id": "http://news.e23.cn/shandong/2023-09-03/2023090300022.html", "title": "\u5f3a\u4fe1\u5fc3 \u7a33\u7ecf\u6d4e \u4fc3\u53d1\u5c55\u4e28\u9c81\u80a1\u534a\u5e74\u62a5\u900f\u9732\u54ea\u4e9b\u4fe1\u53f7", "location_name": "\u6d77\u5c14", "sentiment_score": -0.0888, "topic_index": 2}}
,{"type": "Feature", "geometry": {"type": "Point", "coordinates": [114.378, 23.086]}, "properties": {"_id": "http://news.e23.cn/shandong/2023-09-03/2023090300022.html", "title": "\u5f3a\u4fe1\u5fc3 \u7a33\u7ecf\u6d4e \u4fc3\u53d1\u5c55\u4e28\u9c81\u80a1\u534a\u5e74\u62a5\u900f\u9732\u54ea\u4e9b\u4fe1\u53f7", "location_name": "\u60e0\u57ce", "sentiment_score": -0.0888, "topic_index": 2}}
,{"type": "Feature", "geometry": {"type": "Point", "coordinates": [116.815, 36.619]}, "properties": {"_id": "http://news.e23.cn/shandong/2023-09-03/2023090300022.html", "title": "\u5f3a\u4fe1\u5fc3 \u7a33\u7ecf\u6d4e \u4fc3\u53d1\u5c55\u4e28\u9c81\u80a1\u534a\u5e74\u62a5\u900f\u9732\u54ea\u4e9b\u4fe1\u53f7", "location_name": "\u65b0\u80fd\u6e90\u6c7d\u8f66", "sentiment_score": -0.0888, "topic_index": 2}}
,{"type": "Feature", "geometry": {"type": "Point", "coordinates": [116.4, 36.269]}, "properties": {"_id": "http://news.e23.cn/shandong/2023-09-03/2023090300022.html", "title": "\u5f3a\u4fe1\u5fc3 \u7a33\u7ecf\u6d4e \u4fc3\u53d1\u5c55\u4e28\u9c81\u80a1\u534a\u5e74\u62a5\u900f\u9732\u54ea\u4e9b\u4fe1\u53f7", "location_name": "\u5df4\u57fa\u65af\u5766\u53a8\u7535\u5de5\u5382", "sentiment_score": -0.0888, "topic_index": 2}}
,{"type": "Feature", "geometry": {"type": "Point", "coordinates": [116.945, 36.714]}, "properties": {"_id": "http://news.e23.cn/shandong/2023-09-03/2023090300022.html", "title": "\u5f3a\u4fe1\u5fc3 \u7a33\u7ecf\u6d4e \u4fc3\u53d1\u5c55\u4e28\u9c81\u80a1\u534a\u5e74\u62a5\u900f\u9732\u54ea\u4e9b\u4fe1\u53f7", "location_name": "\u6f4d\u67f4\u52a8\u529b", "sentiment_score": -0.0888, "topic_index": 2}}
,{"type": "Feature", "geometry": {"type": "Point", "coordinates": [113.916, 22.528]}, "properties": {"_id": "http://news.e23.cn/shandong/2023-09-03/2023090300022.html", "title": "\u5f3a\u4fe1\u5fc3 \u7a33\u7ecf\u6d4e \u4fc3\u53d1\u5c55\u4e28\u9c81\u80a1\u534a\u5e74\u62a5\u900f\u9732\u54ea\u4e9b\u4fe1\u53f7", "location_name": "\u5357\u5c71\u94dd\u4e1a", "sentiment_score": -0.0888, "topic_index": 2}}
,{"type": "Feature", "geometry": {"type": "Point", "coordinates": [117.141, 36.651]}, "properties": {"_id": "http://news.e23.cn/shandong/2023-09-03/2023090300022.html", "title": "\u5f3a\u4fe1\u5fc3 \u7a33\u7ecf\u6d4e \u4fc3\u53d1\u5c55\u4e28\u9c81\u80a1\u534a\u5e74\u62a5\u900f\u9732\u54ea\u4e9b\u4fe1\u53f7", "location_name": "\u4e2d\u56fd\u91cd\u6c7d", "sentiment_score": -0.0888, "topic_index": 2}}
,{"type": "Feature", "geometry": {"type": "Point", "coordinates": [116.933, 36.658]}, "properties": {"_id": "http://news.e23.cn/shandong/2023-09-03/2023090300021.html", "title": "\u5c71\u4e1c\uff1a\u5f00\u6d77\u201c\u7b2c\u4e00\u9c9c\u201d\u4e0a\u5cb8\u88ab\u62a2\u8d2d", "location_name": "\u5f00\u6d77", "sentiment_score": 0.9462, "topic_index": 4}}
,{"type": "Feature", "geometry": {"type": "Point", "coordinates": [119.992, 35.863]}, "properties": {"_id": "http://news.e23.cn/shandong/2023-09-03/2023090300021.html", "title": "\u5c71\u4e1c\uff1a\u5f00\u6d77\u201c\u7b2c\u4e00\u9c9c\u201d\u4e0a\u5cb8\u88ab\u62a2\u8d2d", "location_name": "\u9752\u5c9b\u897f\u6d77\u5cb8\u65b0\u533a", "sentiment_score": 0.9462, "topic_index": 4}}
,{"type": "Feature", "geometry": {"type": "Point", "coordinates": [118.317, 32.31]}, "properties": {"_id": "http://news.e23.cn/shandong/2023-09-03/2023090300021.html", "title": "\u5c71\u4e1c\uff1a\u5f00\u6d77\u201c\u7b2c\u4e00\u9c9c\u201d\u4e0a\u5cb8\u88ab\u62a2\u8d2d", "location_name": "\u7405\u740a\u6e2f", "sentiment_score": 0.9462, "topic_index": 4}}
,{"type": "Feature", "geometry": {"type": "Point", "coordinates": [117.014, 36.671]}, "properties": {"_id": "http://news.e23.cn/shandong/2023-09-03/2023090300019.html", "title": "\u5c71\u4e1c\u51fa\u53f0\u7701\u7ea7\u56fd\u6709\u8d44\u672c\u7ecf\u8425\u9884\u7b97\u7ba1\u7406\u529e\u6cd5", "location_name": "\u7701\u653f\u5e9c\u529e\u516c\u5385", "sentiment_score": -0.9912, "topic_index": 0}}
,{"type": "Feature", "geometry": {"type": "Point", "coordinates": [117.013, 36.632]}, "properties": {"_id": "http://news.e23.cn/shandong/2023-09-03/2023090300019.html", "title": "\u5c71\u4e1c\u51fa\u53f0\u7701\u7ea7\u56fd\u6709\u8d44\u672c\u7ecf\u8425\u9884\u7b97\u7ba1\u7406\u529e\u6cd5", "location_name": "\u7701\u8d22\u653f\u5385", "sentiment_score": -0.9912, "topic_index": 0}}
,{"type": "Feature", "geometry": {"type": "Point", "coordinates": [117.014, 36.671]}, "properties": {"_id": "http://news.e23.cn/shandong/2023-09-03/2023090300019.html", "title": "\u5c71\u4e1c\u51fa\u53f0\u7701\u7ea7\u56fd\u6709\u8d44\u672c\u7ecf\u8425\u9884\u7b97\u7ba1\u7406\u529e\u6cd5", "location_name": "\u7701\u653f\u5e9c", "sentiment_score": -0.9912, "topic_index": 0}}
,{"type": "Feature", "geometry": {"type": "Point", "coordinates": [117.264, 36.659]}, "properties": {"_id": "http://news.e23.cn/shandong/2023-09-02/2023090200041.html", "title": "28\u540d\u5c71\u4e1c\u5b66\u8005\u5019\u9009\u201c\u4e24\u9662\u201d\u9662\u58eb\uff0c\u6709\u54ea\u4e9b\u6210\u5c31\uff1f", "location_name": "\u4e2d\u56fd\u79d1\u5b66\u9662", "sentiment_score": 0.992, "topic_index": 4}}
,{"type": "Feature", "geometry": {"type": "Point", "coordinates": [116.936, 36.7]}, "properties": {"_id": "http://news.e23.cn/shandong/2023-09-02/2023090200041.html", "title": "28\u540d\u5c71\u4e1c\u5b66\u8005\u5019\u9009\u201c\u4e24\u9662\u201d\u9662\u58eb\uff0c\u6709\u54ea\u4e9b\u6210\u5c31\uff1f", "location_name": "\u5c71\u4e1c\u5927\u5b66", "sentiment_score": 0.992, "topic_index": 4}}
,{"type": "Feature", "geometry": {"type": "Point", "coordinates": [117.055, 36.676]}, "properties": {"_id": "http://news.e23.cn/shandong/2023-09-02/2023090200041.html", "title": "28\u540d\u5c71\u4e1c\u5b66\u8005\u5019\u9009\u201c\u4e24\u9662\u201d\u9662\u58eb\uff0c\u6709\u54ea\u4e9b\u6210\u5c31\uff1f", "location_name": "\u5c71\u4e1c\u5927\u5b66\u4e2d\u6cf0\u8bc1\u5238\u91d1\u878d\u7814\u7a76\u9662", "sentiment_score": 0.992, "topic_index": 4}}
,{"type": "Feature", "geometry": {"type": "Point", "coordinates": [120.464, 36.107]}, "properties": {"_id": "http://news.e23.cn/shandong/2023-09-02/2023090200041.html", "title": "28\u540d\u5c71\u4e1c\u5b66\u8005\u5019\u9009\u201c\u4e24\u9662\u201d\u9662\u58eb\uff0c\u6709\u54ea\u4e9b\u6210\u5c31\uff1f", "location_name": "\u5d02\u5c71\u5b9e\u9a8c\u5ba4", "sentiment_score": 0.992, "topic_index": 4}}
,{"type": "Feature", "geometry": {"type": "Point", "coordinates": [116.828, 36.547]}, "properties": {"_id": "http://news.e23.cn/shandong/2023-09-02/2023090200041.html", "title": "28\u540d\u5c71\u4e1c\u5b66\u8005\u5019\u9009\u201c\u4e24\u9662\u201d\u9662\u58eb\uff0c\u6709\u54ea\u4e9b\u6210\u5c31\uff1f", "location_name": "\u5c71\u4e1c\u5e08\u8303\u5927\u5b66", "sentiment_score": 0.992, "topic_index": 4}}
,{"type": "Feature", "geometry": {"type": "Point", "coordinates": [116.923, 36.652]}, "properties": {"_id": "http://news.e23.cn/shandong/2023-09-02/2023090200041.html", "title": "28\u540d\u5c71\u4e1c\u5b66\u8005\u5019\u9009\u201c\u4e24\u9662\u201d\u9662\u58eb\uff0c\u6709\u54ea\u4e9b\u6210\u5c31\uff1f", "location_name": "\u4e2d\u56fd\u9ebb\u98ce\u9632\u6cbb\u534f\u4f1a", "sentiment_score": 0.992, "topic_index": 4}}
,{"type": "Feature", "geometry": {"type": "Point", "coordinates": [116.923, 36.652]}, "properties": {"_id": "http://news.e23.cn/shandong/2023-09-02/2023090200041.html", "title": "28\u540d\u5c71\u4e1c\u5b66\u8005\u5019\u9009\u201c\u4e24\u9662\u201d\u9662\u58eb\uff0c\u6709\u54ea\u4e9b\u6210\u5c31\uff1f", "location_name": "\u5c71\u4e1c\u7701\u9ebb\u98ce\u9632\u6cbb\u534f\u4f1a", "sentiment_score": 0.992, "topic_index": 4}}
,{"type": "Feature", "geometry": {"type": "Point", "coordinates": [117.723, 36.244]}, "properties": {"_id": "http://news.e23.cn/shandong/2023-09-02/2023090200041.html", "title": "28\u540d\u5c71\u4e1c\u5b66\u8005\u5019\u9009\u201c\u4e24\u9662\u201d\u9662\u58eb\uff0c\u6709\u54ea\u4e9b\u6210\u5c31\uff1f", "location_name": "\u5730\u7403\u79d1\u5b66\u4e0e\u6280\u672f\u5b66\u9662", "sentiment_score": 0.992, "topic_index": 4}}
,{"type": "Feature", "geometry": {"type": "Point", "coordinates": [117.129, 36.193]}, "properties": {"_id": "http://news.e23.cn/shandong/2023-09-02/2023090200041.html", "title": "28\u540d\u5c71\u4e1c\u5b66\u8005\u5019\u9009\u201c\u4e24\u9662\u201d\u9662\u58eb\uff0c\u6709\u54ea\u4e9b\u6210\u5c31\uff1f", "location_name": "\u6cf0\u5c71", "sentiment_score": 0.992, "topic_index": 4}}
,{"type": "Feature", "geometry": {"type": "Point", "coordinates": [116.971, 36.657]}, "properties": {"_id": "http://news.e23.cn/shandong/2023-09-02/2023090200041.html", "title": "28\u540d\u5c71\u4e1c\u5b66\u8005\u5019\u9009\u201c\u4e24\u9662\u201d\u9662\u58eb\uff0c\u6709\u54ea\u4e9b\u6210\u5c31\uff1f", "location_name": "\u4e2d\u56fd\u79d1\u5b66\u9662\u7814\u7a76\u751f\u9662", "sentiment_score": 0.992, "topic_index": 4}}
,{"type": "Feature", "geometry": {"type": "Point", "coordinates": [117.035, 36.731]}, "properties": {"_id": "http://news.e23.cn/shandong/2023-09-02/2023090200041.html", "title": "28\u540d\u5c71\u4e1c\u5b66\u8005\u5019\u9009\u201c\u4e24\u9662\u201d\u9662\u58eb\uff0c\u6709\u54ea\u4e9b\u6210\u5c31\uff1f", "location_name": "\u592a\u5e73\u6d0b", "sentiment_score": 0.992, "topic_index": 4}}
,{"type": "Feature", "geometry": {"type": "Point", "coordinates": [116.967, 36.678]}, "properties": {"_id": "http://news.e23.cn/shandong/2023-09-02/2023090200041.html", "title": "28\u540d\u5c71\u4e1c\u5b66\u8005\u5019\u9009\u201c\u4e24\u9662\u201d\u9662\u58eb\uff0c\u6709\u54ea\u4e9b\u6210\u5c31\uff1f", "location_name": "\u5c71\u4e1c\u79d1\u6280\u5927\u5b66", "sentiment_score": 0.992, "topic_index": 4}}
,{"type": "Feature", "geometry": {"type": "Point", "coordinates": [117.609, 35.517]}, "properties": {"_id": "http://news.e23.cn/shandong/2023-09-02/2023090200041.html", "title": "28\u540d\u5c71\u4e1c\u5b66\u8005\u5019\u9009\u201c\u4e24\u9662\u201d\u9662\u58eb\uff0c\u6709\u54ea\u4e9b\u6210\u5c31\uff1f", "location_name": "\u5e73\u9091\u53bf", "sentiment_score": 0.992, "topic_index": 4}}
,{"type": "Feature", "geometry": {"type": "Point", "coordinates": [117.114, 36.652]}, "properties": {"_id": "http://news.e23.cn/shandong/2023-09-02/2023090200041.html", "title": "28\u540d\u5c71\u4e1c\u5b66\u8005\u5019\u9009\u201c\u4e24\u9662\u201d\u9662\u58eb\uff0c\u6709\u54ea\u4e9b\u6210\u5c31\uff1f", "location_name": "\u56fd\u52a1\u9662\u653f\u5e9c", "sentiment_score": 0.992, "topic_index": 4}}
,{"type": "Feature", "geometry": {"type": "Point", "coordinates": [117.059, 36.68]}, "properties": {"_id": "http://news.e23.cn/shandong/2023-09-02/2023090200041.html", "title": "28\u540d\u5c71\u4e1c\u5b66\u8005\u5019\u9009\u201c\u4e24\u9662\u201d\u9662\u58eb\uff0c\u6709\u54ea\u4e9b\u6210\u5c31\uff1f", "location_name": "\u56fd\u52a1\u9662\u5b66\u4f4d\u59d4\u5458\u4f1a", "sentiment_score": 0.992, "topic_index": 4}}
,{"type": "Feature", "geometry": {"type": "Point", "coordinates": [118.537, 36.513]}, "properties": {"_id": "http://news.e23.cn/shandong/2023-09-02/2023090200041.html", "title": "28\u540d\u5c71\u4e1c\u5b66\u8005\u5019\u9009\u201c\u4e24\u9662\u201d\u9662\u58eb\uff0c\u6709\u54ea\u4e9b\u6210\u5c31\uff1f", "location_name": "\u4e34\u6710", "sentiment_score": 0.992, "topic_index": 4}}
,{"type": "Feature", "geometry": {"type": "Point", "coordinates": [117.023, 36.651]}, "properties": {"_id": "http://news.e23.cn/shandong/2023-09-02/2023090200041.html", "title": "28\u540d\u5c71\u4e1c\u5b66\u8005\u5019\u9009\u201c\u4e24\u9662\u201d\u9662\u58eb\uff0c\u6709\u54ea\u4e9b\u6210\u5c31\uff1f", "location_name": "\u5c71\u4e1c\u5927\u5b66\u6750\u6599\u79d1\u5b66\u4e0e\u5de5\u7a0b\u5b66\u9662", "sentiment_score": 0.992, "topic_index": 4}}
,{"type": "Feature", "geometry": {"type": "Point", "coordinates": [117.022, 36.667]}, "properties": {"_id": "http://news.e23.cn/shandong/2023-09-02/2023090200041.html", "title": "28\u540d\u5c71\u4e1c\u5b66\u8005\u5019\u9009\u201c\u4e24\u9662\u201d\u9662\u58eb\uff0c\u6709\u54ea\u4e9b\u6210\u5c31\uff1f", "location_name": "\u9f50\u9c81", "sentiment_score": 0.992, "topic_index": 4}}
,{"type": "Feature", "geometry": {"type": "Point", "coordinates": [117.505, 36.668]}, "properties": {"_id": "http://news.e23.cn/shandong/2023-09-02/2023090200041.html", "title": "28\u540d\u5c71\u4e1c\u5b66\u8005\u5019\u9009\u201c\u4e24\u9662\u201d\u9662\u58eb\uff0c\u6709\u54ea\u4e9b\u6210\u5c31\uff1f", "location_name": "\u79d1\u5b66\u4e0e\u5de5\u7a0b\u5b66\u9662", "sentiment_score": 0.992, "topic_index": 4}}
,{"type": "Feature", "geometry": {"type": "Point", "coordinates": [117.505, 36.668]}, "properties": {"_id": "http://news.e23.cn/shandong/2023-09-02/2023090200041.html", "title": "28\u540d\u5c71\u4e1c\u5b66\u8005\u5019\u9009\u201c\u4e24\u9662\u201d\u9662\u58eb\uff0c\u6709\u54ea\u4e9b\u6210\u5c31\uff1f", "location_name": "\u4e2d\u56fd\u6d77\u6d0b\u5927\u5b66\u6750\u6599\u79d1\u5b66\u4e0e\u5de5\u7a0b\u5b66\u9662", "sentiment_score": 0.992, "topic_index": 4}}
,{"type": "Feature", "geometry": {"type": "Point", "coordinates": [125.143, 42.924]}, "properties": {"_id": "http://news.e23.cn/shandong/2023-09-02/2023090200040.html", "title": "\u6700\u706b\u70ed\u6691\u671f\u6536\u5b98\uff1a\u6587\u5316\u5c71\u4e1c\u4eba\u504f\u7231\u81ea\u9a7e\u548c\u201c\u901b\u9986\u201d", "location_name": "\u897f\u5b89", "sentiment_score": 0.9548, "topic_index": 2}}
,{"type": "Feature", "geometry": {"type": "Point", "coordinates": [113.075, 28.249]}, "properties": {"_id": "http://news.e23.cn/shandong/2023-09-02/2023090200040.html", "title": "\u6700\u706b\u70ed\u6691\u671f\u6536\u5b98\uff1a\u6587\u5316\u5c71\u4e1c\u4eba\u504f\u7231\u81ea\u9a7e\u548c\u201c\u901b\u9986\u201d", "location_name": "\u957f\u6c99", "sentiment_score": 0.9548, "topic_index": 2}}
,{"type": "Feature", "geometry": {"type": "Point", "coordinates": [102.223, 31.902]}, "properties": {"_id": "http://news.e23.cn/shandong/2023-09-02/2023090200040.html", "title": "\u6700\u706b\u70ed\u6691\u671f\u6536\u5b98\uff1a\u6587\u5316\u5c71\u4e1c\u4eba\u504f\u7231\u81ea\u9a7e\u548c\u201c\u901b\u9986\u201d", "location_name": "\u963f\u575d\u85cf\u65cf\u7f8c\u65cf\u81ea\u6cbb\u5dde", "sentiment_score": 0.9548, "topic_index": 2}}
,{"type": "Feature", "geometry": {"type": "Point", "coordinates": [113.126, 40.993]}, "properties": {"_id": "http://news.e23.cn/shandong/2023-09-02/2023090200040.html", "title": "\u6700\u706b\u70ed\u6691\u671f\u6536\u5b98\uff1a\u6587\u5316\u5c71\u4e1c\u4eba\u504f\u7231\u81ea\u9a7e\u548c\u201c\u901b\u9986\u201d", "location_name": "\u4e4c\u5170\u5bdf\u5e03", "sentiment_score": 0.9548, "topic_index": 2}}
,{"type": "Feature", "geometry": {"type": "Point", "coordinates": [101.96, 30.052]}, "properties": {"_id": "http://news.e23.cn/shandong/2023-09-02/2023090200040.html", "title": "\u6700\u706b\u70ed\u6691\u671f\u6536\u5b98\uff1a\u6587\u5316\u5c71\u4e1c\u4eba\u504f\u7231\u81ea\u9a7e\u548c\u201c\u901b\u9986\u201d", "location_name": "\u7518\u5b5c\u85cf\u65cf\u81ea\u6cbb\u5dde", "sentiment_score": 0.9548, "topic_index": 2}}
,{"type": "Feature", "geometry": {"type": "Point", "coordinates": [119.786, 25.502]}, "properties": {"_id": "http://news.e23.cn/shandong/2023-09-02/2023090200040.html", "title": "\u6700\u706b\u70ed\u6691\u671f\u6536\u5b98\uff1a\u6587\u5316\u5c71\u4e1c\u4eba\u504f\u7231\u81ea\u9a7e\u548c\u201c\u901b\u9986\u201d", "location_name": "\u5e73\u6f6d", "sentiment_score": 0.9548, "topic_index": 2}}
,{"type": "Feature", "geometry": {"type": "Point", "coordinates": [109.775, 39.607]}, "properties": {"_id": "http://news.e23.cn/shandong/2023-09-02/2023090200040.html", "title": "\u6700\u706b\u70ed\u6691\u671f\u6536\u5b98\uff1a\u6587\u5316\u5c71\u4e1c\u4eba\u504f\u7231\u81ea\u9a7e\u548c\u201c\u901b\u9986\u201d", "location_name": "\u9102\u5c14\u591a\u65af", "sentiment_score": 0.9548, "topic_index": 2}}
,{"type": "Feature", "geometry": {"type": "Point", "coordinates": [117.15, 37.311]}, "properties": {"_id": "http://news.e23.cn/shandong/2023-09-02/2023090200040.html", "title": "\u6700\u706b\u70ed\u6691\u671f\u6536\u5b98\uff1a\u6587\u5316\u5c71\u4e1c\u4eba\u504f\u7231\u81ea\u9a7e\u548c\u201c\u901b\u9986\u201d", "location_name": "\u9996\u5c14", "sentiment_score": 0.9548, "topic_index": 2}}
,{"type": "Feature", "geometry": {"type": "Point", "coordinates": [117.022, 36.666]}, "properties": {"_id": "http://news.e23.cn/shandong/2023-09-02/2023090200040.html", "title": "\u6700\u706b\u70ed\u6691\u671f\u6536\u5b98\uff1a\u6587\u5316\u5c71\u4e1c\u4eba\u504f\u7231\u81ea\u9a7e\u548c\u201c\u901b\u9986\u201d", "location_name": "\u6c49\u5ead\u9152\u5e97", "sentiment_score": 0.9548, "topic_index": 2}}
,{"type": "Feature", "geometry": {"type": "Point", "coordinates": [117.028, 36.66]}, "properties": {"_id": "http://news.e23.cn/shandong/2023-09-02/2023090200040.html", "title": "\u6700\u706b\u70ed\u6691\u671f\u6536\u5b98\uff1a\u6587\u5316\u5c71\u4e1c\u4eba\u504f\u7231\u81ea\u9a7e\u548c\u201c\u901b\u9986\u201d", "location_name": "\u5168\u5b63\u9152\u5e97", "sentiment_score": 0.9548, "topic_index": 2}}
,{"type": "Feature", "geometry": {"type": "Point", "coordinates": [116.983, 36.67]}, "properties": {"_id": "http://news.e23.cn/shandong/2023-09-02/2023090200040.html", "title": "\u6700\u706b\u70ed\u6691\u671f\u6536\u5b98\uff1a\u6587\u5316\u5c71\u4e1c\u4eba\u504f\u7231\u81ea\u9a7e\u548c\u201c\u901b\u9986\u201d", "location_name": "\u83ab\u6cf0", "sentiment_score": 0.9548, "topic_index": 2}}
,{"type": "Feature", "geometry": {"type": "Point", "coordinates": [117.008, 36.681]}, "properties": {"_id": "http://news.e23.cn/shandong/2023-09-02/2023090200040.html", "title": "\u6700\u706b\u70ed\u6691\u671f\u6536\u5b98\uff1a\u6587\u5316\u5c71\u4e1c\u4eba\u504f\u7231\u81ea\u9a7e\u548c\u201c\u901b\u9986\u201d", "location_name": "\u5982\u5bb6", "sentiment_score": 0.9548, "topic_index": 2}}
,{"type": "Feature", "geometry": {"type": "Point", "coordinates": [117.061, 36.674]}, "properties": {"_id": "http://news.e23.cn/shandong/2023-09-02/2023090200040.html", "title": "\u6700\u706b\u70ed\u6691\u671f\u6536\u5b98\uff1a\u6587\u5316\u5c71\u4e1c\u4eba\u504f\u7231\u81ea\u9a7e\u548c\u201c\u901b\u9986\u201d", "location_name": "\u9526\u6c5f\u4e4b\u661f", "sentiment_score": 0.9548, "topic_index": 2}}
,{"type": "Feature", "geometry": {"type": "Point", "coordinates": [117.072, 36.665]}, "properties": {"_id": "http://news.e23.cn/shandong/2023-09-02/2023090200040.html", "title": "\u6700\u706b\u70ed\u6691\u671f\u6536\u5b98\uff1a\u6587\u5316\u5c71\u4e1c\u4eba\u504f\u7231\u81ea\u9a7e\u548c\u201c\u901b\u9986\u201d", "location_name": "\u9526\u6c5f\u9152\u5e97", "sentiment_score": 0.9548, "topic_index": 2}}
,{"type": "Feature", "geometry": {"type": "Point", "coordinates": [116.973, 36.676]}, "properties": {"_id": "http://news.e23.cn/shandong/2023-09-02/2023090200040.html", "title": "\u6700\u706b\u70ed\u6691\u671f\u6536\u5b98\uff1a\u6587\u5316\u5c71\u4e1c\u4eba\u504f\u7231\u81ea\u9a7e\u548c\u201c\u901b\u9986\u201d", "location_name": "\u5feb\u6377\u8fde\u9501\u9152\u5e97", "sentiment_score": 0.9548, "topic_index": 2}}
,{"type": "Feature", "geometry": {"type": "Point", "coordinates": [117.014, 36.671]}, "properties": {"_id": "http://news.e23.cn/shandong/2023-09-02/2023090200039.html", "title": "\u6c11\u8425\u5e02\u573a\u4e3b\u4f53\u8fbe1419.6\u4e07\u6237\uff01\u5c71\u4e1c\u5c06\u51fa\u53f0\u300a\u5173\u4e8e\u652f\u6301\u6c11\u8425\u7ecf\u6d4e\u9ad8\u8d28\u91cf\u53d1\u5c55\u7684\u82e5\u5e72\u610f\u89c1\u300b", "location_name": "\u7701\u653f\u5e9c", "sentiment_score": 0.9926, "topic_index": 3}}
,{"type": "Feature", "geometry": {"type": "Point", "coordinates": [116.962, 36.652]}, "properties": {"_id": "http://news.e23.cn/shandong/2023-09-02/2023090200039.html", "title": "\u6c11\u8425\u5e02\u573a\u4e3b\u4f53\u8fbe1419.6\u4e07\u6237\uff01\u5c71\u4e1c\u5c06\u51fa\u53f0\u300a\u5173\u4e8e\u652f\u6301\u6c11\u8425\u7ecf\u6d4e\u9ad8\u8d28\u91cf\u53d1\u5c55\u7684\u82e5\u5e72\u610f\u89c1\u300b", "location_name": "\u5168\u56fd\u5de5\u5546\u8054", "sentiment_score": 0.9926, "topic_index": 3}}
,{"type": "Feature", "geometry": {"type": "Point", "coordinates": [116.995, 36.737]}, "properties": {"_id": "http://news.e23.cn/shandong/2023-09-02/2023090200039.html", "title": "\u6c11\u8425\u5e02\u573a\u4e3b\u4f53\u8fbe1419.6\u4e07\u6237\uff01\u5c71\u4e1c\u5c06\u51fa\u53f0\u300a\u5173\u4e8e\u652f\u6301\u6c11\u8425\u7ecf\u6d4e\u9ad8\u8d28\u91cf\u53d1\u5c55\u7684\u82e5\u5e72\u610f\u89c1\u300b", "location_name": "\u5c71\u4e1c\u53d1\u5c55", "sentiment_score": 0.9926, "topic_index": 3}}
,{"type": "Feature", "geometry": {"type": "Point", "coordinates": [117.128, 36.677]}, "properties": {"_id": "http://news.e23.cn/shandong/2023-09-02/2023090200038.html", "title": "\u5c71\u4e1c\u9996\u6b21\u53d1\u5e0310\u9879\u79d1\u6280\u521b\u65b0\u201c\u597d\u6210\u679c\u201d", "location_name": "\u5c71\u4e1c\u80fd\u6e90\u7814\u7a76\u9662", "sentiment_score": 0.9898, "topic_index": 3}}
,{"type": "Feature", "geometry": {"type": "Point", "coordinates": [117.264, 36.659]}, "properties": {"_id": "http://news.e23.cn/shandong/2023-09-02/2023090200038.html", "title": "\u5c71\u4e1c\u9996\u6b21\u53d1\u5e0310\u9879\u79d1\u6280\u521b\u65b0\u201c\u597d\u6210\u679c\u201d", "location_name": "\u4e2d\u56fd\u79d1\u5b66\u9662", "sentiment_score": 0.9898, "topic_index": 3}}
,{"type": "Feature", "geometry": {"type": "Point", "coordinates": [116.815, 36.619]}, "properties": {"_id": "http://news.e23.cn/shandong/2023-09-02/2023090200038.html", "title": "\u5c71\u4e1c\u9996\u6b21\u53d1\u5e0310\u9879\u79d1\u6280\u521b\u65b0\u201c\u597d\u6210\u679c\u201d", "location_name": "\u65b0\u80fd\u6e90\u6c7d\u8f66", "sentiment_score": 0.9898, "topic_index": 3}}
,{"type": "Feature", "geometry": {"type": "Point", "coordinates": [116.995, 36.737]}, "properties": {"_id": "http://news.e23.cn/shandong/2023-09-02/2023090200038.html", "title": "\u5c71\u4e1c\u9996\u6b21\u53d1\u5e0310\u9879\u79d1\u6280\u521b\u65b0\u201c\u597d\u6210\u679c\u201d", "location_name": "\u5c71\u4e1c\u79d1\u6280", "sentiment_score": 0.9898, "topic_index": 3}}
,{"type": "Feature", "geometry": {"type": "Point", "coordinates": [117.114, 36.651]}, "properties": {"_id": "http://news.e23.cn/shandong/2023-09-02/2023090200003.html", "title": "\u5c71\u4e1c\u5370\u53d1\u300a\u9ec4\u6cb3\u56fd\u5bb6\u6587\u5316\u516c\u56ed(\u5c71\u4e1c\u6bb5)\u5efa\u8bbe\u4fdd\u62a4\u89c4\u5212\u300b", "location_name": "\u5c71\u4e1c\u7701\u53d1\u5c55\u6539\u9769\u59d4", "sentiment_score": 0.9908, "topic_index": 3}}
,{"type": "Feature", "geometry": {"type": "Point", "coordinates": [118.576, 37.448]}, "properties": {"_id": "http://news.e23.cn/shandong/2023-09-02/2023090200003.html", "title": "\u5c71\u4e1c\u5370\u53d1\u300a\u9ec4\u6cb3\u56fd\u5bb6\u6587\u5316\u516c\u56ed(\u5c71\u4e1c\u6bb5)\u5efa\u8bbe\u4fdd\u62a4\u89c4\u5212\u300b", "location_name": "\u4e1c\u8425", "sentiment_score": 0.9908, "topic_index": 3}}
,{"type": "Feature", "geometry": {"type": "Point", "coordinates": [117.022, 36.667]}, "properties": {"_id": "http://news.e23.cn/shandong/2023-09-02/2023090200003.html", "title": "\u5c71\u4e1c\u5370\u53d1\u300a\u9ec4\u6cb3\u56fd\u5bb6\u6587\u5316\u516c\u56ed(\u5c71\u4e1c\u6bb5)\u5efa\u8bbe\u4fdd\u62a4\u89c4\u5212\u300b", "location_name": "\u9f50\u9c81", "sentiment_score": 0.9908, "topic_index": 3}}
,{"type": "Feature", "geometry": {"type": "Point", "coordinates": [117.346, 36.677]}, "properties": {"_id": "http://news.e23.cn/shandong/2023-09-02/2023090200003.html", "title": "\u5c71\u4e1c\u5370\u53d1\u300a\u9ec4\u6cb3\u56fd\u5bb6\u6587\u5316\u516c\u56ed(\u5c71\u4e1c\u6bb5)\u5efa\u8bbe\u4fdd\u62a4\u89c4\u5212\u300b", "location_name": "\u65b0\u65f6\u4ee3", "sentiment_score": 0.9908, "topic_index": 3}}
,{"type": "Feature", "geometry": {"type": "Point", "coordinates": [117.204, 36.85]}, "properties": {"_id": "http://news.e23.cn/shandong/2023-09-01/2023090100043.html", "title": "\u6691\u8fd0\u6536\u5b98\uff01\u5c71\u4e1c\u673a\u573a\u5ba2\u6d41\u8fbe\u5386\u53f2\u6700\u9ad8\u6c34\u5e73\uff0c\u603b\u541e\u5410\u91cf\u8fd1750\u4e07\u4eba\u6b21", "location_name": "\u5c71\u4e1c\u7701\u673a\u573a\u7ba1\u7406\u96c6\u56e2", "sentiment_score": 0.9916, "topic_index": 1}}
,{"type": "Feature", "geometry": {"type": "Point", "coordinates": [117.205, 36.858]}, "properties": {"_id": "http://news.e23.cn/shandong/2023-09-01/2023090100043.html", "title": "\u6691\u8fd0\u6536\u5b98\uff01\u5c71\u4e1c\u673a\u573a\u5ba2\u6d41\u8fbe\u5386\u53f2\u6700\u9ad8\u6c34\u5e73\uff0c\u603b\u541e\u5410\u91cf\u8fd1750\u4e07\u4eba\u6b21", "location_name": "\u7701\u673a\u573a\u7ba1\u7406\u96c6\u56e2", "sentiment_score": 0.9916, "topic_index": 1}}
,{"type": "Feature", "geometry": {"type": "Point", "coordinates": [118.576, 37.448]}, "properties": {"_id": "http://news.e23.cn/shandong/2023-09-01/2023090100043.html", "title": "\u6691\u8fd0\u6536\u5b98\uff01\u5c71\u4e1c\u673a\u573a\u5ba2\u6d41\u8fbe\u5386\u53f2\u6700\u9ad8\u6c34\u5e73\uff0c\u603b\u541e\u5410\u91cf\u8fd1750\u4e07\u4eba\u6b21", "location_name": "\u4e1c\u8425\u673a\u573a", "sentiment_score": 0.9916, "topic_index": 1}}
,{"type": "Feature", "geometry": {"type": "Point", "coordinates": [110.474, 29.12]}, "properties": {"_id": "http://news.e23.cn/shandong/2023-09-01/2023090100043.html", "title": "\u6691\u8fd0\u6536\u5b98\uff01\u5c71\u4e1c\u673a\u573a\u5ba2\u6d41\u8fbe\u5386\u53f2\u6700\u9ad8\u6c34\u5e73\uff0c\u603b\u541e\u5410\u91cf\u8fd1750\u4e07\u4eba\u6b21", "location_name": "\u5f20\u5bb6\u754c", "sentiment_score": 0.9916, "topic_index": 1}}
,{"type": "Feature", "geometry": {"type": "Point", "coordinates": [115.939, 28.549]}, "properties": {"_id": "http://news.e23.cn/shandong/2023-09-01/2023090100043.html", "title": "\u6691\u8fd0\u6536\u5b98\uff01\u5c71\u4e1c\u673a\u573a\u5ba2\u6d41\u8fbe\u5386\u53f2\u6700\u9ad8\u6c34\u5e73\uff0c\u603b\u541e\u5410\u91cf\u8fd1750\u4e07\u4eba\u6b21", "location_name": "\u5357\u660c", "sentiment_score": 0.9916, "topic_index": 1}}
,{"type": "Feature", "geometry": {"type": "Point", "coordinates": [118.576, 37.448]}, "properties": {"_id": "http://news.e23.cn/shandong/2023-09-01/2023090100043.html", "title": "\u6691\u8fd0\u6536\u5b98\uff01\u5c71\u4e1c\u673a\u573a\u5ba2\u6d41\u8fbe\u5386\u53f2\u6700\u9ad8\u6c34\u5e73\uff0c\u603b\u541e\u5410\u91cf\u8fd1750\u4e07\u4eba\u6b21", "location_name": "\u4e1c\u8425", "sentiment_score": 0.9916, "topic_index": 1}}
,{"type": "Feature", "geometry": {"type": "Point", "coordinates": [111.742, 40.841]}, "properties": {"_id": "http://news.e23.cn/shandong/2023-09-01/2023090100043.html", "title": "\u6691\u8fd0\u6536\u5b98\uff01\u5c71\u4e1c\u673a\u573a\u5ba2\u6d41\u8fbe\u5386\u53f2\u6700\u9ad8\u6c34\u5e73\uff0c\u603b\u541e\u5410\u91cf\u8fd1750\u4e07\u4eba\u6b21", "location_name": "\u547c\u548c\u6d69\u7279", "sentiment_score": 0.9916, "topic_index": 1}}
,{"type": "Feature", "geometry": {"type": "Point", "coordinates": [117.208, 36.851]}, "properties": {"_id": "http://news.e23.cn/shandong/2023-09-01/2023090100043.html", "title": "\u6691\u8fd0\u6536\u5b98\uff01\u5c71\u4e1c\u673a\u573a\u5ba2\u6d41\u8fbe\u5386\u53f2\u6700\u9ad8\u6c34\u5e73\uff0c\u603b\u541e\u5410\u91cf\u8fd1750\u4e07\u4eba\u6b21", "location_name": "\u6d4e\u5357\u673a\u573a", "sentiment_score": 0.9916, "topic_index": 1}}
,{"type": "Feature", "geometry": {"type": "Point", "coordinates": [117.366, 36.715]}, "properties": {"_id": "http://news.e23.cn/shandong/2023-09-01/2023090100043.html", "title": "\u6691\u8fd0\u6536\u5b98\uff01\u5c71\u4e1c\u673a\u573a\u5ba2\u6d41\u8fbe\u5386\u53f2\u6700\u9ad8\u6c34\u5e73\uff0c\u603b\u541e\u5410\u91cf\u8fd1750\u4e07\u4eba\u6b21", "location_name": "\u82bd\u5e84", "sentiment_score": 0.9916, "topic_index": 1}}
,{"type": "Feature", "geometry": {"type": "Point", "coordinates": [117.205, 36.858]}, "properties": {"_id": "http://news.e23.cn/shandong/2023-09-01/2023090100043.html", "title": "\u6691\u8fd0\u6536\u5b98\uff01\u5c71\u4e1c\u673a\u573a\u5ba2\u6d41\u8fbe\u5386\u53f2\u6700\u9ad8\u6c34\u5e73\uff0c\u603b\u541e\u5410\u91cf\u8fd1750\u4e07\u4eba\u6b21", "location_name": "\u5c71\u4e1c\u673a\u573a", "sentiment_score": 0.9916, "topic_index": 1}}
,{"type": "Feature", "geometry": {"type": "Point", "coordinates": [104.516, 28.44]}, "properties": {"_id": "http://news.e23.cn/shandong/2023-09-01/2023090100025.html", "title": "\u7701\u9ec4\u4e09\u89d2\u519c\u9ad8\u533a\u805a\u529b\u653b\u575a\u76d0\u78b1\u5730\u519c\u673a\u88c5\u5907\u6838\u5fc3\u6280\u672f", "location_name": "\u9ec4\u4e09\u89d2\u519c\u9ad8\u533a", "sentiment_score": 0.6646, "topic_index": 3}}
,{"type": "Feature", "geometry": {"type": "Point", "coordinates": [117.025, 36.619]}, "properties": {"_id": "http://news.e23.cn/shandong/2023-09-01/2023090100025.html", "title": "\u7701\u9ec4\u4e09\u89d2\u519c\u9ad8\u533a\u805a\u529b\u653b\u575a\u76d0\u78b1\u5730\u519c\u673a\u88c5\u5907\u6838\u5fc3\u6280\u672f", "location_name": "\u534e\u590f", "sentiment_score": 0.6646, "topic_index": 3}}
,{"type": "Feature", "geometry": {"type": "Point", "coordinates": [117.021, 36.642]}, "properties": {"_id": "http://news.e23.cn/shandong/2023-09-01/2023090100024.html", "title": "9\u67081\u65e5\u9ec4\u6e24\u6d77\u4f11\u6e14\u671f\u7ed3\u675f \u5c71\u4e1c14000\u8258\u6e14\u8239\u84c4\u52bf\u5f85\u53d1", "location_name": "\u5c71\u4e1c\u6d77\u4e8b\u5c40", "sentiment_score": 0.9644, "topic_index": 4}}
,{"type": "Feature", "geometry": {"type": "Point", "coordinates": [117.218, 36.651]}, "properties": {"_id": "http://news.e23.cn/shandong/2023-09-01/2023090100023.html", "title": "\u5728\u6570\u5b57\u7ecf\u6d4e\u53d1\u5c55\u65b0\u8d5b\u9053\u4e0a\u8dd1\u51fa\u5c71\u4e1c\u901f\u5ea6", "location_name": "\u6d6a\u6f6e\u96c6\u56e2", "sentiment_score": 0.9922, "topic_index": 3}}
,{"type": "Feature", "geometry": {"type": "Point", "coordinates": [117.094, 36.662]}, "properties": {"_id": "http://news.e23.cn/shandong/2023-08-31/2023083100017.html", "title": "\u5c71\u4e1c\u9996\u6279\u57fa\u5c42\u836f\u5e97\u5f00\u552e\u96c6\u91c7\u836f\u54c1", "location_name": "\u7701\u533b\u4fdd\u5c40", "sentiment_score": 0.984, "topic_index": 4}}
,{"type": "Feature", "geometry": {"type": "Point", "coordinates": [117.079, 36.683]}, "properties": {"_id": "http://news.e23.cn/shandong/2023-08-31/2023083100013.html", "title": "\u5c71\u4e1c\u6784\u5efa\u4e94\u7ea7\u8001\u5e74\u6559\u80b2\u529e\u5b66\u670d\u52a1\u4f53\u7cfb\u52a9\u529b\u8001\u6709\u6240\u5b66", "location_name": "\u5c71\u4e1c\u7701\u59d4\u8001\u5e72\u90e8\u5c40", "sentiment_score": 0.6426, "topic_index": 3}}
,{"type": "Feature", "geometry": {"type": "Point", "coordinates": [117.346, 36.677]}, "properties": {"_id": "http://news.e23.cn/shandong/2023-08-31/2023083100013.html", "title": "\u5c71\u4e1c\u6784\u5efa\u4e94\u7ea7\u8001\u5e74\u6559\u80b2\u529e\u5b66\u670d\u52a1\u4f53\u7cfb\u52a9\u529b\u8001\u6709\u6240\u5b66", "location_name": "\u65b0\u65f6\u4ee3", "sentiment_score": 0.6426, "topic_index": 3}}
,{"type": "Feature", "geometry": {"type": "Point", "coordinates": [117.04, 36.642]}, "properties": {"_id": "http://news.e23.cn/shandong/2023-08-30/2023083000057.html", "title": "\u56fd\u5bb6\u78b3\u8ba1\u91cf\u4e2d\u5fc3\uff08\u5c71\u4e1c\uff09\u83b7\u6279\u7b79\u5efa", "location_name": "\u56fd\u5bb6\u78b3\u8ba1\u91cf\u4e2d\u5fc3", "sentiment_score": -0.6842, "topic_index": 3}}
,{"type": "Feature", "geometry": {"type": "Point", "coordinates": [117.051, 36.705]}, "properties": {"_id": "http://news.e23.cn/shandong/2023-08-28/2023082800003.html", "title": "\u5c71\u4e1c\uff1a\u6253\u9020\u7eff\u6c34\u9752\u5c71\u79c0\u7f8e\u5bb6\u56ed", "location_name": "\u5c0f\u6e05\u6cb3", "sentiment_score": 0.9746, "topic_index": 5}}
]}